City_ID,City,Lat,Lng,Max Temp,Humidity,Cloudiness,Wind Speed,Country,Date
0,utrik,11.2278,169.8474,28.5,77,46,5.53,MH,1722997222
1,puerto natales,-51.7236,-72.4875,-2.15,91,100,1.31,CL,1722997223
2,adamstown,-25.066,-130.1015,18.7,66,39,5.08,PN,1722997224
3,tangier,35.7806,-5.8137,21.64,100,75,2.06,MA,1722997225
4,northam,51.0333,-4.2167,15.37,94,3,4.21,GB,1722997226
5,reuleuet,5.2167,96.2833,28.9,62,72,0.81,ID,1722997228
6,wailua homesteads,22.0669,-159.378,28.44,67,0,6.69,US,1722997229
7,cananea,30.95,-110.3,18.36,80,100,1.09,MX,1722997230
8,edmundston,47.3737,-68.3251,16.63,51,0,2.57,CA,1722997231
9,waitangi,-43.9535,-176.5597,11.57,76,0,0.89,NZ,1722997232
10,constantia,44.1833,28.65,16.5,88,0,5.55,RO,1722997233
11,kidal,18.4411,1.4078,27.93,53,26,5.51,ML,1722997234
12,talnakh,69.4865,88.3972,15.0,50,2,7.54,RU,1722997235
13,grytviken,-54.2811,-36.5092,-8.69,68,55,2.99,GS,1722997236
14,west island,-12.1568,96.8225,27.99,65,1,5.66,CC,1722997237
15,ust-nera,64.5667,143.2,10.73,85,100,2.02,RU,1722996969
16,bilibino,68.0546,166.4372,11.41,44,23,1.76,RU,1722997240
17,iskateley,67.6803,53.1512,8.3,71,8,2.86,RU,1722997241
18,colonia nicolich,-34.8131,-56.0447,16.06,100,100,6.17,UY,1722997242
19,hawaiian paradise park,19.5933,-154.9731,27.73,66,0,4.63,US,1722997243
20,yellowknife,62.456,-114.3525,20.23,42,20,4.12,CA,1722997244
21,vorgashor,67.5833,63.95,8.57,61,12,4.25,RU,1722997245
22,gurupa,-1.405,-51.64,25.6,70,21,1.03,BR,1722997246
23,hermanus,-34.4187,19.2345,7.67,83,17,1.92,ZA,1722997247
24,rongelap,11.1635,166.8941,28.72,77,100,4.2,MH,1722997248
25,turan,16.0678,108.2208,31.99,58,0,0.51,VN,1722997249
26,port-aux-francais,-49.35,70.2167,2.5,87,68,6.99,TF,1722997250
27,tiksi,71.6872,128.8694,10.12,82,96,4.79,RU,1722997252
28,ceeldheer,3.8488,47.1806,24.36,88,98,6.46,SO,1722997253
29,crane,31.3974,-102.3501,33.23,23,0,3.77,US,1722997254
30,smithers,54.7804,-127.1743,27.18,28,20,2.57,CA,1722997224
31,pravokumskoye,44.7694,44.6472,22.52,69,51,2.28,RU,1722997256
32,thompson,55.7435,-97.8558,12.09,94,100,3.09,CA,1722997257
33,sinop,41.7711,34.8709,16.31,65,48,1.15,TR,1722997244
34,codrington,-38.2667,141.9667,14.76,66,9,6.63,AU,1722997259
35,edinburgh of the seven seas,-37.0676,-12.3116,9.53,59,6,5.93,SH,1722997260
36,papatowai,-46.5619,169.4708,12.45,57,100,2.13,NZ,1722997261
37,badger,64.8,-147.5333,22.95,61,75,2.06,US,1722997262
38,mazatlan,23.2167,-106.4167,29.39,77,100,1.54,MX,1722996966
39,muravlenko,63.7898,74.523,9.69,66,16,6.03,RU,1722997265
40,georgetown,5.4112,100.3354,29.96,74,40,3.09,MY,1722997266
41,punta arenas,-53.15,-70.9167,-1.94,93,75,2.57,CL,1722997076
42,port alfred,-33.5906,26.891,13.33,70,0,4.19,ZA,1722997268
43,tazacorte,28.629,-17.9293,23.54,88,100,6.69,ES,1722997269
44,udachny,66.4167,112.4,13.55,52,35,0.86,RU,1722997270
45,tromso,69.6496,18.957,12.01,87,3,0.0,NO,1722997271
46,pangody,65.85,74.4859,9.35,72,0,6.26,RU,1722997272
47,nikolayevsk-on-amure,53.1406,140.73,19.15,88,100,2.07,RU,1722997273
48,homer,59.6425,-151.5483,17.93,72,100,5.66,US,1722997274
49,blackmans bay,-43.0167,147.3167,14.07,60,100,2.41,AU,1722997275
50,ilulissat,69.2167,-51.1,7.01,93,58,0.0,GL,1722997277
51,tamanrasset,22.785,5.5228,27.95,13,0,3.6,DZ,1722997278
52,monrovia,6.3005,-10.7969,24.87,85,100,4.5,LR,1722997279
53,avarua,-21.2078,-159.775,25.03,83,75,3.6,CK,1722997280
54,chonchi,-42.6128,-73.8092,3.4,96,10,0.72,CL,1722997281
55,brisas de zicatela,15.8369,-97.0419,28.07,81,99,3.26,MX,1722997282
56,margaret river,-33.95,115.0667,13.52,77,100,8.81,AU,1722997283
57,prince rupert,54.3161,-130.3201,13.05,99,100,4.63,CA,1722997284
58,post,33.1909,-101.3782,32.21,27,1,4.06,US,1722997285
59,bredasdorp,-34.5322,20.0403,8.56,91,1,1.32,ZA,1722997053
60,yorkton,51.2167,-102.4677,15.91,100,100,4.12,CA,1722997287
61,iqaluit,63.7506,-68.5145,7.85,75,75,1.54,CA,1722997289
62,grand falls-windsor,48.9332,-55.6649,14.17,81,13,4.56,CA,1722997286
63,isafjordur,66.0755,-23.124,6.29,92,98,2.6,IS,1722997291
64,kerikeri,-35.2268,173.9474,13.15,63,93,2.02,NZ,1722997292
65,kodiak,57.79,-152.4072,11.73,100,100,7.2,US,1722997293
66,puerto ayora,-0.7393,-90.3518,20.31,91,82,5.14,EC,1722997294
67,karatuzskoye,53.6072,92.8667,16.01,89,93,1.86,RU,1722997295
68,nogliki,51.8333,143.1667,24.13,70,99,5.84,RU,1722997296
69,westport,41.1415,-73.3579,22.53,89,100,6.69,US,1722997297
70,new norfolk,-42.7826,147.0587,14.72,70,100,1.9,AU,1722997298
71,saint-pierre,-21.3393,55.4781,18.82,59,20,4.12,RE,1722997299
72,kill devil hills,36.0307,-75.676,26.1,95,0,3.09,US,1722997054
73,arteche,12.2645,125.4048,30.98,64,99,2.47,PH,1722997302
74,taoudenni,22.6783,-3.9836,36.93,20,7,4.89,ML,1722997304
75,alamosa,37.4695,-105.87,18.99,59,75,3.6,US,1722997305
76,fuglafjordur,62.244,-6.814,11.26,96,100,9.95,FO,1722997306
77,pivijay,10.4617,-74.6162,25.49,90,100,1.99,CO,1722997307
78,kaa-khem,51.6833,94.7333,20.16,50,24,1.43,RU,1722997308
79,kruisfontein,-34.0033,24.7314,8.92,81,0,2.78,ZA,1722997309
80,hamilton,39.1834,-84.5333,28.94,73,0,2.06,US,1722997310
81,afaahiti,-17.75,-149.2833,26.93,84,7,8.77,PF,1722997311
82,uturoa,-16.7333,-151.4333,26.14,85,5,8.41,PF,1722997312
83,bambous,-20.2567,57.4061,17.85,91,3,3.39,MU,1722997313
84,salinopolis,-0.6136,-47.3561,25.78,87,99,4.73,BR,1722997243
85,hasaki,35.7333,140.8333,34.05,82,61,4.55,JP,1722997316
86,lihue,21.9789,-159.3672,28.77,63,0,6.69,US,1722997317
87,genhe,50.7833,121.5167,20.26,66,98,1.89,CN,1722997318
88,sidney,-33.8679,151.2073,18.53,46,0,2.57,AU,1722997229
89,leshan,29.5623,103.7639,29.75,77,98,0.32,CN,1722997320
90,petropavlovsk-kamchatsky,53.0452,158.6483,13.33,100,75,3.0,RU,1722997321
91,stanley,54.868,-1.6985,13.49,86,0,3.6,GB,1722997322
92,karratha,-20.7377,116.8463,24.19,28,0,2.73,AU,1722997323
93,beau vallon,-20.4189,57.6953,18.45,88,20,1.54,MU,1722997324
94,invercargill,-46.4,168.35,12.79,68,100,4.92,NZ,1722997325
95,carnarvon,-24.8667,113.6333,20.9,64,100,4.44,AU,1722997113
96,nuuk,64.1835,-51.7216,8.34,93,100,0.51,GL,1722997327
97,nova sintra,14.8667,-24.7167,25.71,85,100,7.53,CV,1722997329
98,casablanca,33.5928,-7.6192,24.07,78,0,2.68,MA,1722997202
99,addiet canna,11.2667,37.4833,12.76,93,100,0.93,ET,1722997331
100,mount gambier,-37.8333,140.7667,14.86,59,6,4.41,AU,1722997332
101,contamana,-7.3333,-75.0167,25.57,68,10,1.09,PE,1722997333
102,port elizabeth,-33.918,25.5701,9.62,91,0,1.54,ZA,1722997335
103,quiberon,47.4841,-3.1196,12.78,76,0,4.03,FR,1722997336
104,warrnambool,-38.3833,142.4833,14.3,68,10,6.66,AU,1722997337
105,ushuaia,-54.8,-68.3,-2.19,74,0,1.54,AR,1722997210
106,saipan,15.1355,145.701,29.39,84,75,3.6,MP,1722997318
107,zeya,53.75,127.2667,25.07,51,95,1.13,RU,1722997342
108,kandyagash,49.4744,57.4233,23.28,50,12,1.09,KZ,1722997343
109,mili,6.0815,171.735,27.58,71,72,0.53,MH,1722997344
110,albany,42.6001,-73.9662,18.5,80,100,1.72,US,1722997345
111,nefteyugansk,61.0998,72.6035,11.94,63,18,5.33,RU,1722997346
112,vilyuchinsk,52.9306,158.4028,14.15,95,100,0.52,RU,1722997347
113,argo,37.6333,22.7333,24.88,57,0,1.71,GR,1722997348
114,kirensk,57.7853,108.1119,24.73,44,6,1.15,RU,1722997349
115,mejit,10.2753,170.8646,28.56,77,46,5.64,MH,1722997350
116,selfoss,63.9331,-20.9971,8.91,84,32,2.11,IS,1722997351
117,longyearbyen,78.2186,15.6401,8.91,93,75,0.0,SJ,1722997352
118,puerto baquerizo moreno,-0.9,-89.6,19.69,84,81,6.29,EC,1722997354
119,wingham,43.8879,-81.3114,16.26,87,9,3.31,CA,1722997355
120,diyarbakir,37.9158,40.2189,26.99,29,0,5.14,TR,1722997356
121,gadzhiyevo,69.2551,33.3362,11.82,58,54,3.89,RU,1722997357
122,freeport,40.6576,-73.5832,22.99,94,100,4.12,US,1722997229
123,anadyr,64.75,177.4833,9.28,61,75,5.0,RU,1722997359
124,haiku-pauwela,20.9219,-156.3051,28.43,64,20,10.8,US,1722997360
125,touros,-5.1989,-35.4608,23.59,84,1,5.77,BR,1722997361
126,suntar,62.1444,117.6319,18.03,48,97,2.56,RU,1722997362
127,dawei,14.0833,98.2,26.86,82,100,1.53,MM,1722997363
128,banda aceh,5.5577,95.3222,28.55,71,69,5.71,ID,1722997220
129,suratgarh,29.3167,73.9,31.0,66,0,6.7,IN,1722997365
130,bethel,41.3712,-73.414,21.61,89,100,3.22,US,1722997348
131,norderney,53.7,7.15,18.9,84,100,2.85,DE,1722997368
132,kinablangan,7.6947,126.5503,28.77,68,99,2.22,PH,1722997369
133,dudinka,69.4058,86.1778,11.89,55,0,10.89,RU,1722997370
134,hassi messaoud,31.6804,6.0729,28.92,30,0,2.06,DZ,1722997371
135,nyurba,63.2842,118.3319,16.44,50,12,3.31,RU,1722997372
136,port lincoln,-34.7333,135.8667,15.63,55,25,7.22,AU,1722997373
137,calabozo,8.9242,-67.4293,24.18,93,17,1.1,VE,1722997374
138,haukipudas,65.1765,25.3523,11.03,71,6,3.28,FI,1722997375
139,filadelfia,39.9523,-75.1638,23.48,96,100,5.14,US,1722997134
140,katsuren-haebaru,26.3369,127.8719,33.21,73,75,4.12,JP,1722997377
141,kharp,66.8014,65.8081,10.75,60,9,0.47,RU,1722997379
142,la palma,33.8464,-118.0467,30.49,73,20,4.63,US,1722997380
143,klyuchi,52.2667,79.1667,19.82,77,100,1.36,RU,1722997381
144,saldanha,-33.0117,17.9442,10.03,86,97,2.78,ZA,1722997382
145,kete krachi,7.7939,-0.0498,24.2,81,98,4.07,GH,1722997383
146,shahpura,27.3833,75.9667,25.03,93,100,4.81,IN,1722997384
147,sitka,57.0531,-135.33,16.94,77,0,4.63,US,1722997385
148,campeche,19.0,-90.5,27.58,72,100,1.72,MX,1722997269
149,enewetak,11.3474,162.3373,28.59,77,100,5.49,MH,1722997295
150,acapulco de juarez,16.8634,-99.8901,28.9,74,100,2.57,MX,1722997389
151,linqiong,30.4159,103.4609,29.9,77,98,0.76,CN,1722997391
152,jalingo,8.8833,11.3667,22.23,96,78,1.89,NG,1722997392
153,broken hill,-31.95,141.4333,13.8,47,65,2.06,AU,1722997393
154,dhidhdhoo,6.8833,73.1,27.85,78,100,4.85,MV,1722997394
155,port saint john's,-31.6229,29.5448,14.01,66,0,2.16,ZA,1722997395
156,queenstown,-31.8976,26.8753,7.59,21,0,2.47,ZA,1722997396
157,ribeira grande,38.5167,-28.7,23.21,89,12,1.34,PT,1722997397
158,rugeley,52.7593,-1.9369,13.79,84,0,3.7,GB,1722997398
159,olonkinbyen,70.9221,-8.7187,5.57,100,100,6.09,SJ,1722997399
160,bubaque,11.2833,-15.8333,26.25,84,100,6.76,GW,1722997400
161,alpine,32.835,-116.7664,29.02,41,0,4.12,US,1722997401
162,alofi,-19.0595,-169.9187,23.94,69,75,4.12,NU,1722997402
163,adam,22.3756,57.5233,27.16,69,35,3.17,OM,1722997404
164,kenai,60.5544,-151.2583,17.03,84,100,4.63,US,1722997358
165,nabire,-3.3667,135.4833,26.99,87,100,1.01,ID,1722997406
166,richards bay,-28.783,32.0377,15.54,79,0,3.52,ZA,1722997407
167,yazd,31.8972,54.3675,31.06,18,0,2.06,IR,1722997408
168,palangkaraya,-2.2,113.8333,28.15,74,89,3.02,ID,1722997409
169,bandarbeyla,9.4942,50.8122,25.24,77,9,11.8,SO,1722997410
170,okhotsk,59.3833,143.3,12.05,79,100,3.19,RU,1722997411
171,al ghayzah,16.2079,52.176,25.03,89,90,1.56,YE,1722997412
172,brak,27.5496,14.2714,30.4,14,0,4.13,LY,1722997413
173,susuman,62.7833,148.1667,9.28,74,100,1.97,RU,1722997350
174,malvan,16.0667,73.4667,26.15,84,100,1.33,IN,1722997417
175,labytnangi,66.6572,66.4183,10.51,59,3,0.84,RU,1722997258
176,kavaratti,10.5669,72.642,26.6,83,100,3.93,IN,1722997385
177,shingu,33.7333,135.9833,30.07,73,88,2.06,JP,1722997420
178,mindelo,16.8901,-24.9804,25.75,83,75,6.17,CV,1722997421
179,pelabuhanratu,-6.9875,106.5514,27.75,71,92,1.57,ID,1722997422
180,ta`u,-14.2336,-169.5144,26.0,77,33,5.82,AS,1722997423
181,wasselonne,48.6372,7.4473,19.62,88,0,1.03,FR,1722997424
182,tibati,6.4667,12.6333,18.12,99,100,1.42,CM,1722997425
183,ramadi,33.4226,43.3058,33.39,17,0,6.26,IQ,1722997426
184,impfondo,1.6381,18.0667,22.22,84,100,1.39,CG,1722997427
185,arak,34.0917,49.6892,25.62,28,20,1.27,IR,1722997428
186,tofol,5.3248,163.0078,30.88,70,75,4.63,FM,1722997225
187,jackson,42.4165,-122.8345,32.43,16,9,3.58,US,1722997264
188,mahibadhoo,3.7833,72.9667,28.21,73,100,2.28,MV,1722997432
189,klaksvik,62.2266,-6.589,11.51,96,100,10.24,FO,1722997433
190,college,64.8569,-147.8028,22.99,65,75,2.06,US,1722997434
191,darhan,49.4867,105.9228,21.49,67,88,2.42,MN,1722997435
192,atafu village,-8.5421,-172.5159,28.36,76,100,6.16,TK,1722997273
193,weno,7.4515,151.8468,30.97,84,100,1.54,FM,1722997437
194,vadso,70.0744,29.7487,12.49,76,14,1.03,NO,1722997438
195,hithadhoo,-0.6,73.0833,27.6,74,84,1.74,MV,1722997439
196,charters towers,-20.1,146.2667,24.89,45,0,1.99,AU,1722997440
197,lagoa,39.05,-27.9833,21.74,72,67,3.72,PT,1722997441
198,shalkar,47.8288,59.6258,26.88,42,7,0.86,KZ,1722997442
199,nemuro,43.3236,145.575,18.8,99,100,3.62,JP,1722997444
200,aykhal,66.0,111.5,13.73,51,19,1.87,RU,1722997445
201,la ronge,55.1001,-105.2842,18.14,42,100,7.72,CA,1722997447
202,puerto armuelles,8.2833,-82.8667,24.99,93,100,0.45,PA,1722997448
203,biloela,-24.4167,150.5,15.53,85,100,1.47,AU,1722997449
204,protaras,35.0125,34.0583,26.1,90,0,0.45,CY,1722997450
205,morehead city,34.7229,-76.726,26.12,93,100,6.26,US,1722997451
206,tolanaro,-25.0319,46.9987,21.04,88,75,6.17,MG,1722997452
207,fisterra,42.9049,-9.2629,18.19,79,0,7.96,ES,1722997453
208,lincoln city,44.9582,-124.0179,19.82,77,0,7.6,US,1722997454
209,praia da vitoria,38.7333,-27.0667,23.14,83,20,2.82,PT,1722997455
210,dakoro,14.5106,6.765,24.96,70,100,3.86,NE,1722997457
211,santa elena de uairen,4.6167,-61.1333,19.2,89,16,1.12,VE,1722997458
212,alice springs,-23.7,133.8833,19.75,37,0,3.6,AU,1722997459
213,santana,-0.0583,-51.1817,29.1,79,75,3.6,BR,1722997376
214,puerto colombia,10.9878,-74.9547,26.05,82,100,1.62,CO,1722997461
215,semirara,12.0697,121.3986,27.57,81,18,4.98,PH,1722997462
216,mundybash,53.211,87.2983,16.02,94,100,1.37,RU,1722997463
217,niquero,20.0431,-77.5828,28.18,82,87,0.98,CU,1722997464
218,bamboo flat,11.7,92.7167,26.05,94,75,1.03,IN,1722997465
219,katsuura,35.1333,140.3,27.25,89,96,3.26,JP,1722997466
220,necochea,-38.5473,-58.7368,10.49,98,100,3.87,AR,1722997467
221,kourou,5.1552,-52.6478,25.03,91,100,2.57,GF,1722997468
222,sabang,5.8933,95.3214,27.77,80,100,9.14,ID,1722997470
223,valkeakoski,61.2642,24.0312,12.93,80,19,1.77,FI,1722997471
224,ambon,-3.6954,128.1814,26.08,89,40,3.09,ID,1722997472
225,nema,57.5067,50.5011,14.65,92,100,1.71,RU,1722997473
226,lebu,-37.6167,-73.65,5.96,84,2,2.55,CL,1722997474
227,troitsko-pechorsk,62.7084,56.1964,9.79,73,95,3.19,RU,1722997475
228,kailua-kona,19.6406,-155.9956,26.98,86,75,2.06,US,1722997476
229,mchinji,-13.7984,32.8802,12.67,65,0,1.68,MW,1722997477
230,khanbari,27.3747,87.2039,23.93,91,100,0.91,NP,1722997478
231,thinadhoo,0.5333,72.9333,28.29,69,8,2.3,MV,1722997479
232,dalandzadgad,43.5708,104.425,28.18,33,53,7.7,MN,1722997480
233,sumbawa besar,-8.5,117.4333,32.23,41,4,3.9,ID,1722997481
234,buckeye,33.3703,-112.5838,40.57,30,0,9.26,US,1722997483
235,xinzhi,36.4989,111.7047,24.16,82,100,2.58,CN,1722997484
236,tadine,-21.55,167.8833,21.75,59,60,6.25,NC,1722997485
237,sayat,38.7839,63.8803,26.93,20,0,5.66,TM,1722997486
238,anan,33.9167,134.65,32.88,67,29,3.34,JP,1722997487
239,richfield,44.8833,-93.283,20.36,72,0,0.0,US,1722997488
240,kingston,17.997,-76.7936,29.53,84,20,3.6,JM,1722997398
241,tsiombe,-25.3,45.4833,19.18,82,100,4.28,MG,1722997490
242,rikaze,29.25,88.8833,15.51,48,100,1.43,CN,1722997491
243,ratnagiri,16.9833,73.3,26.45,83,100,2.05,IN,1722997492
244,belmonte,-15.8631,-38.8828,21.83,88,54,3.25,BR,1722997493
245,dubbo,-32.25,148.6167,14.07,51,11,3.09,AU,1722997494
246,smara,26.7384,-11.6719,20.92,70,0,5.58,EH,1722997497
247,keflavik,64.0049,-22.5624,10.24,100,0,3.6,IS,1722997498
248,meulaboh,4.1363,96.1285,25.17,87,77,1.9,ID,1722997499
249,jiangzi,28.95,89.6333,8.25,55,96,1.66,CN,1722997500
250,hutchinson,38.0608,-97.9298,26.69,61,0,3.6,US,1722997289
251,saint-francois,46.4154,3.9054,20.69,86,100,2.06,FR,1722997502
252,stephenville,32.2207,-98.2023,31.75,45,0,1.54,US,1722997503
253,mount isa,-20.7333,139.5,21.87,28,1,5.14,AU,1722997504
254,vernon,50.2581,-119.2691,29.61,25,45,3.13,CA,1722997505
255,kapuskasing,49.4169,-82.4331,14.05,67,20,1.03,CA,1722997508
256,jayapura,-2.5333,140.7,29.66,81,100,2.17,ID,1722997509
257,harper,4.375,-7.7169,23.4,83,100,3.9,LR,1722997510
258,san pedro pochutla,15.7333,-96.4667,28.84,87,100,2.08,MX,1722997511
259,margate,51.3813,1.3862,14.83,83,47,4.81,GB,1722997512
260,firuzabad,28.8438,52.5707,26.58,29,17,0.47,IR,1722997513
261,juba,4.8517,31.5825,20.34,90,100,0.69,SS,1722997514
262,ust'-kulom,61.6864,53.6902,10.05,89,100,3.15,RU,1722997515
263,la'ie,21.6477,-157.9253,30.98,71,4,3.13,US,1722997517
264,asaita,11.5636,41.4394,25.7,81,100,1.86,ET,1722997518
265,harstad,68.799,16.5293,19.23,56,2,7.6,NO,1722997519
266,chibougamau,49.9168,-74.3659,11.79,62,20,2.57,CA,1722997520
267,okha,53.5739,142.9478,17.97,79,90,6.64,RU,1722997522
268,coquimbo,-29.9533,-71.3436,11.85,77,75,1.54,CL,1722997523
269,gobabis,-22.45,18.9667,12.76,25,16,1.69,NA,1722997524
270,city of balikpapan,-1.242,116.8942,26.97,89,40,4.12,ID,1722997525
271,belem,-1.4558,-48.5044,29.39,78,40,4.12,BR,1722997365
272,tazovsky,67.4667,78.7,8.32,75,0,7.08,RU,1722997527
273,kempsey,-31.0833,152.8333,20.08,55,96,1.79,AU,1722997528
274,east london,-33.0153,27.9116,13.62,61,0,4.04,ZA,1722997353
275,happy valley-goose bay,53.3168,-60.3315,14.17,67,75,2.57,CA,1722997531
276,guerrero negro,27.9769,-114.0611,23.96,70,25,5.89,MX,1722997532
277,brie-comte-robert,48.6833,2.6167,19.12,85,75,5.14,FR,1722997533
278,molchanovo,57.5817,83.7692,18.01,89,100,1.85,RU,1722997535
279,tralee,52.2704,-9.7026,13.58,92,87,4.75,IE,1722997536
280,kununurra,-15.7667,128.7333,30.99,37,15,4.63,AU,1722997269
281,zheleznogorsk-ilimskiy,56.5768,104.1217,19.03,61,100,2.23,RU,1722997538
282,dunedin,-45.8742,170.5036,11.56,59,100,1.34,NZ,1722997539
283,colonia,50.9333,6.95,19.97,83,0,1.54,DE,1722997347
284,parintins,-2.6283,-56.7358,26.47,48,95,1.25,BR,1722997541
285,ancud,-41.8697,-73.8203,5.76,88,50,2.09,CL,1722997542
286,severnoye,56.3491,78.3619,17.04,98,100,1.54,RU,1722997543
287,kampung ayer molek,2.2139,102.3278,29.34,82,20,2.06,MY,1722997544
288,fort bragg,35.139,-79.006,24.08,96,100,3.6,US,1722997450
289,antalaha,-14.9003,50.2788,18.75,86,9,3.12,MG,1722997336
290,fondettes,47.4035,0.5969,19.99,84,100,5.14,FR,1722997548
291,gejiu,23.306,103.1635,19.64,83,70,1.95,CN,1722997549
292,ixtapa,20.7,-105.2,27.35,89,100,0.0,MX,1722997550
293,verkhnevilyuysk,63.4453,120.3167,15.96,54,11,3.78,RU,1722997551
294,mount pearl,47.5166,-52.7813,16.64,89,75,6.69,CA,1722997337
295,halifax,44.6453,-63.5724,17.47,95,100,1.34,CA,1722997553
296,strezhevoy,60.7333,77.5889,13.68,60,84,3.78,RU,1722997554
297,hillsboro,45.5229,-122.9898,25.79,55,0,4.12,US,1722997555
298,zadar,44.1197,15.2422,21.34,78,0,1.03,HR,1722997556
299,salekhard,66.53,66.6019,10.21,60,1,2.0,RU,1722997557
300,fedorovskiy,45.0972,40.9517,17.47,84,11,3.01,RU,1722997559
301,siwa oasis,29.2041,25.5195,28.92,47,0,3.43,EG,1722997560
302,khorixas,-20.3667,14.9667,14.33,38,5,0.44,NA,1722997561
303,hami,42.8,93.45,33.12,15,100,0.82,CN,1722997562
304,pyt-yakh,60.7499,72.8582,11.98,61,23,3.48,RU,1722997563
305,el alto,-4.2714,-81.2147,17.81,75,0,10.21,PE,1722997564
306,lamu,-2.2717,40.902,24.81,86,2,7.13,KE,1722997565
307,saint-joseph,-21.3667,55.6167,18.21,67,0,1.53,RE,1722997566
308,reggane,26.7158,0.1714,35.65,15,2,5.36,DZ,1722997567
309,aasiaat,68.7098,-52.8699,3.6,95,97,3.1,GL,1722997568
310,vorkuta,67.5,64.0,8.77,62,12,4.03,RU,1722997569
311,hotan,37.0997,79.9269,21.8,64,100,7.57,CN,1722997570
312,duncan,34.5023,-97.9578,33.94,44,0,4.12,US,1722997572
313,jamestown,42.097,-79.2353,17.77,93,100,6.69,US,1722997573
314,san antonio de pale,-1.4014,5.6325,22.35,80,86,5.7,GQ,1722997574
315,rabo de peixe,37.8,-25.5833,22.73,83,20,4.12,PT,1722997575
316,st. john's,47.5649,-52.7093,17.1,89,75,6.69,CA,1722997576
317,epernay,49.05,3.95,19.06,98,100,2.9,FR,1722997577
318,micheweni,-4.9667,39.8333,24.25,84,11,3.79,TZ,1722997578
319,byron bay,-28.65,153.6167,18.17,61,56,4.39,AU,1722997427
320,tarawa,1.419,172.984,31.05,66,20,2.57,KI,1722997580
321,jaciara,-15.9653,-54.9683,22.32,34,0,1.24,BR,1722997581
322,gongchangling,41.1167,123.45,29.32,66,89,1.02,CN,1722997582
323,lagos,6.5833,3.75,25.18,83,97,2.94,NG,1722997583
324,san patricio,28.017,-97.5169,30.94,65,0,5.12,US,1722997585
325,garagoa,5.0824,-73.3633,15.31,96,82,1.43,CO,1722997586
326,sorong,-0.8833,131.25,27.81,78,59,4.47,ID,1722997587
327,remire-montjoly,4.9167,-52.2667,25.02,100,0,1.54,GF,1722997588
328,deqen,29.9618,90.7188,12.74,68,100,2.14,CN,1722997589
329,fada,7.25,4.0667,22.09,95,100,1.13,NG,1722997495
330,ol kalou,-0.2658,36.379,9.83,92,16,1.65,KE,1722997591
331,pangoa,-12.1167,-73.0,19.44,99,47,1.43,PE,1722997592
332,slave lake,55.2834,-114.769,14.99,88,100,3.09,CA,1722997593
333,vila franca do campo,37.7167,-25.4333,23.23,92,28,2.18,PT,1722997594
334,puerto leguizamo,-0.1934,-74.7819,23.46,93,74,0.96,CO,1722997595
335,sosnovo-ozerskoye,52.5249,111.5418,22.22,41,49,2.71,RU,1722997596
336,nantucket,41.2835,-70.0995,20.08,94,100,3.09,US,1722997597
337,east ballina,-28.8667,153.5833,18.22,62,83,4.67,AU,1722997599
338,sakakah,29.9697,40.2064,22.76,19,0,2.36,SA,1722997600
339,itaueira,-7.6033,-43.0256,24.83,41,98,3.72,BR,1722997601
340,zaozersk,69.4005,32.4476,12.59,57,67,2.24,RU,1722997602
341,bonthe,7.5264,-12.505,24.83,82,99,3.44,SL,1722997411
342,rundu,-17.9333,19.7667,14.61,20,0,1.02,NA,1722997604
343,acacoyagua,15.35,-92.65,25.49,95,100,1.44,MX,1722997606
344,tukrah,32.5341,20.5791,26.31,62,0,3.06,LY,1722997607
345,merritt island,28.5392,-80.672,30.0,77,0,4.47,US,1722997608
346,luwuk,-0.9516,122.7875,24.22,93,93,1.4,ID,1722997610
347,riberalta,-10.9833,-66.1,26.12,56,64,0.88,BO,1722997366
348,sao jose da coroa grande,-8.8978,-35.1478,23.89,79,3,4.54,BR,1722997612
349,chela,34.069,104.4619,16.78,89,100,0.5,CN,1722997613
350,rio grande,-32.035,-52.0986,16.08,99,100,3.55,BR,1722997424
351,mogocha,53.7333,119.7667,20.61,55,65,1.16,RU,1722997615
352,colonel hill,22.7667,-74.2167,28.56,80,35,6.1,BS,1722997616
353,urangan,-25.3,152.9,19.23,76,100,5.09,AU,1722997617
354,tyuratam,45.6507,63.3156,30.41,30,70,2.05,KZ,1722997618
355,chumphon,10.3333,98.8333,27.94,70,100,2.18,TH,1722997619
356,marsa alam,25.0757,34.8918,31.9,46,99,0.73,EG,1722997620
357,walvis bay,-22.9575,14.5053,11.72,95,84,1.44,NA,1722997621
358,indianola,41.3581,-93.5574,21.01,81,100,1.53,US,1722997623
359,bol,13.4586,14.7147,25.88,85,100,5.95,TD,1722997347
360,arkadelphia,34.1209,-93.0538,32.54,83,0,0.0,US,1722997625
361,argostolion,38.1811,20.489,26.53,44,0,1.55,GR,1722997626
362,vadstena,58.4486,14.8897,17.71,82,100,2.77,SE,1722997627
363,ulsteinvik,62.3432,5.8487,17.95,95,100,1.79,NO,1722997628
364,road town,18.4167,-64.6167,29.02,74,40,3.6,VG,1722997629
365,huaidian,33.4333,115.0333,31.02,71,7,3.0,CN,1722997630
366,tura,25.5198,90.2201,24.59,94,100,1.91,IN,1722997632
367,antofagasta,-23.65,-70.4,14.6,79,96,2.9,CL,1722997477
368,port mathurin,-19.6833,63.4167,22.45,73,48,3.86,MU,1722997635
369,nazret,8.55,39.2667,16.79,94,100,3.93,ET,1722997636
370,nizhneudinsk,54.9076,99.0276,15.79,95,100,1.45,RU,1722997637
371,angaur state,6.906,134.13,29.09,74,100,5.43,PW,1722997638
372,fleurance,43.8482,0.663,21.69,99,100,2.31,FR,1722997639
373,yaren,-0.5472,166.916,28.32,70,100,1.98,NR,1722997640
374,algrange,49.3586,6.0475,19.48,86,100,0.87,FR,1722997641
375,caleta de carquin,-11.0925,-77.6267,16.66,87,18,5.81,PE,1722997642
376,yuanping,38.7153,112.7575,19.25,87,100,1.25,CN,1722997643
377,inhambane,-23.865,35.3833,18.43,82,17,2.52,MZ,1722997644
378,mbanza-ngungu,-5.25,14.8667,19.37,71,97,3.95,CD,1722997645
379,al wajh,26.2455,36.4525,28.97,74,0,1.54,SA,1722997646
380,whitehorse,60.7161,-135.0538,27.79,23,0,7.2,CA,1722997648
381,laojunmiao,39.8333,97.7333,26.22,25,0,5.2,CN,1722997649
382,ponta delgada,37.7333,-25.6667,23.4,83,20,4.12,PT,1722997650
383,kuruman,-27.4524,23.4325,6.84,34,0,3.64,ZA,1722997651
384,undurkhaan,47.3194,110.6556,22.28,56,26,1.29,MN,1722997652
385,isangel,-19.55,169.2667,23.16,56,70,7.41,VU,1722997653
386,recani,31.2846,-4.2688,33.03,11,16,2.18,MA,1722997654
387,hammerfest,70.6634,23.6821,17.25,63,0,3.6,NO,1722997413
388,polyarnyy,69.1989,33.4478,11.58,59,48,4.06,RU,1722997656
389,heber city,40.5069,-111.4132,31.96,27,29,0.45,US,1722997657
390,nadym,65.5333,72.5167,9.35,71,0,5.63,RU,1722997658
391,palikir - national government center,6.9248,158.1611,26.47,100,100,4.63,FM,1722997659
392,oranjemund,-28.55,16.4333,11.16,82,40,1.3,NA,1722997661
393,mandalgovi,45.7625,106.2708,22.67,47,100,9.33,MN,1722997662
394,revda,56.801,59.9303,12.46,98,89,1.32,RU,1722997663
395,ghatanji,20.1333,78.3167,23.92,94,100,3.24,IN,1722997664
396,fortuna,40.5982,-124.1573,16.19,79,0,4.63,US,1722997665
397,yuzhno-kurilsk,44.0306,145.8556,19.15,98,100,2.28,RU,1722997666
398,wewak,-3.5534,143.6268,28.78,74,100,3.3,PG,1722997667
399,paphos,34.7667,32.4167,23.88,53,0,3.09,CY,1722997668
400,opuwo,-18.0607,13.84,15.87,36,0,1.44,NA,1722997669
401,kapiri mposhi,-13.9652,28.6809,12.88,59,0,3.13,ZM,1722997670
402,puerto gaitan,4.3133,-72.0816,25.16,77,8,1.92,CO,1722997671
403,kaoma,-14.7833,24.8,14.05,29,5,3.17,ZM,1722997672
404,gaiman,-43.2897,-65.4929,6.07,90,100,9.34,AR,1722997674
405,port moresby,-9.4431,147.1797,31.68,55,20,4.12,PG,1722997675
406,kulhudhuffushi,6.6221,73.07,27.47,81,100,4.82,MV,1722997676
407,minas de marcona,-15.2119,-75.1103,10.07,92,77,5.63,PE,1722997677
408,ibarreta,-25.2144,-59.8585,19.56,88,76,2.39,AR,1722997622
409,cadale,2.7603,46.3222,24.69,88,36,5.61,SO,1722997679
410,quellon,-43.1167,-73.6167,6.2,84,4,2.06,CL,1722997680
411,chelmsford,51.7357,0.4696,15.01,84,0,3.25,GB,1722997681
412,dogondoutchi,13.6393,4.0287,24.91,74,100,6.86,NE,1722997682
413,la passe,45.5549,-0.8967,20.13,84,100,4.49,FR,1722997683
414,fort wellington,6.4,-57.6,26.74,80,1,3.54,GY,1722997684
415,yung shue wan,22.2333,114.1167,32.6,79,1,4.6,HK,1722997685
416,marka,1.7159,44.7717,24.36,90,32,5.95,SO,1722997686
417,mugia,43.1041,-9.2179,18.28,80,0,7.03,ES,1722997688
418,prieska,-29.6641,22.7474,8.73,25,0,1.85,ZA,1722997689
419,sola,-13.8833,167.55,24.66,68,100,11.01,VU,1722997691
420,mananjary,-21.2167,48.3333,20.64,79,65,1.2,MG,1722997692
421,vilyuysk,63.7553,121.6247,13.07,64,93,4.11,RU,1722997693
422,guapimirim,-22.5372,-42.9819,23.82,54,0,2.42,BR,1722997683
423,taksimo,56.3444,114.8794,23.15,50,11,1.05,RU,1722997695
424,divnogorsk,55.9594,92.3619,17.27,92,100,2.23,RU,1722997696
425,port hedland,-20.3167,118.5667,24.03,33,0,3.09,AU,1722997697
426,nove mesto nad metuji,50.3446,16.1515,15.96,77,44,1.41,CZ,1722997698
427,naze,28.3667,129.4833,31.51,72,10,2.94,JP,1722997482
428,ash shafa,21.0694,40.3119,16.21,67,100,2.29,SA,1722997701
429,castillos,-34.1667,-53.8333,15.87,97,100,4.11,UY,1722997702
430,chulakkurgan,43.765,69.1814,27.4,23,0,3.85,KZ,1722997703
431,mao,39.8885,4.2658,25.31,88,0,2.06,ES,1722997704
432,nola,40.922,14.5329,26.75,75,45,0.7,IT,1722997705
433,wanganui,-39.9333,175.05,13.69,53,5,2.08,NZ,1722997706
434,axim,4.8699,-2.2405,22.73,90,90,3.61,GH,1722997708
435,al bawiti,28.3492,28.8659,26.8,52,0,3.25,EG,1722997709
436,atasu,48.6814,71.6433,25.11,36,56,2.72,KZ,1722997710
437,qaqortoq,60.7167,-46.0333,8.92,88,100,1.71,GL,1722997711
438,tapioszecso,47.45,19.6092,17.14,77,5,1.52,HU,1722997712
439,blackwater,-23.5833,148.8833,19.79,67,97,2.78,AU,1722997714
440,nar'yan-mar,67.6713,53.087,8.24,72,8,2.89,RU,1722997715
441,pechora,65.1472,57.2244,9.98,65,5,1.41,RU,1722997530
442,ambovombe,-25.1667,46.0833,19.3,84,100,5.57,MG,1722997717
443,acajutla,13.5928,-89.8275,27.8,82,3,2.87,SV,1722997718
444,lagunas,-5.2269,-75.6753,24.82,80,44,1.08,PE,1722997719
445,thunder bay,48.4001,-89.3168,18.99,48,20,2.06,CA,1722997442
446,fale old settlement,-9.3852,-171.2468,28.29,73,58,6.26,TK,1722997721
447,ulladulla,-35.35,150.4667,15.98,42,4,2.12,AU,1722997722
448,ames,42.0347,-93.6199,20.1,82,75,0.0,US,1722997690
449,ar rutbah,33.0381,40.2848,26.94,34,0,5.65,IQ,1722997724
450,taunggyi,20.7833,97.0333,21.75,84,95,2.22,MM,1722997726
451,kota tinggi,1.7381,103.8999,30.02,67,100,2.07,MY,1722997727
452,constitucion,-35.3333,-72.4167,6.5,87,9,2.3,CL,1722997728
453,pozzallo,36.7305,14.8499,23.36,70,0,0.53,IT,1722997729
454,bima,-8.4667,118.7167,31.22,52,59,2.38,ID,1722997730
455,sile,41.1754,29.6133,23.37,73,0,0.86,TR,1722997731
456,amga,60.8953,131.9608,15.66,84,71,2.46,RU,1722997732
457,mahajanga,-15.7167,46.3167,20.01,83,0,3.09,MG,1722997733
458,alotau,-10.3069,150.4462,28.07,68,100,2.78,PG,1722997734
459,turpan,42.9333,89.1667,34.71,21,96,2.83,CN,1722997735
460,porto novo,6.4965,2.6036,24.51,82,96,3.64,BJ,1722997656
461,petauke,-14.2426,31.3253,15.52,60,0,2.81,ZM,1722997738
462,presidente epitacio,-21.7633,-52.1156,23.27,35,0,3.45,BR,1722997739
463,huittinen,61.1833,22.7,16.09,80,99,1.45,FI,1722997740
464,tashtagol,52.7657,87.8894,15.05,94,100,1.0,RU,1722997741
465,geraldton,-28.7667,114.6,20.23,73,40,7.72,AU,1722997742
466,sao gabriel da cachoeira,-0.1303,-67.0892,24.39,70,0,0.47,BR,1722997743
467,sao joao de pirabas,-0.7747,-47.1772,24.69,91,100,2.81,BR,1722997744
468,laguna,38.421,-121.4238,38.87,19,0,3.09,US,1722997483
469,cadillac,44.2519,-85.4012,15.95,82,0,1.03,US,1722997747
470,altay,47.8667,88.1167,21.56,32,100,1.48,CN,1722997748
471,papao,-17.75,-149.55,27.82,79,15,9.8,PF,1722997749
472,lockwood,45.8191,-108.4149,19.94,72,100,10.29,US,1722997750
473,keetmanshoop,-26.5833,18.1333,12.12,28,34,2.59,NA,1722997751
474,buritis,-15.6178,-46.4233,19.1,29,0,0.67,BR,1722997752
475,belyy yar,53.6039,91.3903,18.94,72,0,2.0,RU,1722997753
476,kayangel,8.0823,134.7173,29.06,74,61,4.97,PW,1722997754
477,lompoc,34.6391,-120.4579,28.9,88,0,5.14,US,1722997755
478,hadibu,12.65,54.0333,25.0,79,65,9.31,YE,1722997756
479,egilsstadir,65.2653,-14.3948,6.95,93,20,1.03,IS,1722997757
480,middletown,39.5151,-84.3983,28.63,91,75,4.12,US,1722997675
481,tsengel,49.4783,100.8894,17.66,57,4,1.81,MN,1722997760
482,arkhangel'sk,64.5401,40.5433,10.06,100,0,2.0,RU,1722997761
483,kudymkar,59.0173,54.656,14.64,95,100,1.39,RU,1722997762
484,kudahuvadhoo,2.6708,72.8944,27.74,75,100,2.11,MV,1722997556
485,zhangye,38.9342,100.4517,30.4,20,0,4.99,CN,1722997765
486,shimoda,34.6667,138.95,31.72,83,85,2.8,JP,1722997766
487,boguchany,58.3814,97.4531,18.39,92,100,2.22,RU,1722997478
488,kolonia town,6.964,158.206,27.06,100,100,4.63,FM,1722997768
489,namie,37.4833,141.0,31.42,75,25,3.81,JP,1722997769
490,velikiy ustyug,60.7644,46.3106,11.95,95,97,2.41,RU,1722997771
491,tindouf,27.6711,-8.1474,33.25,10,0,6.17,DZ,1722997772
492,dunkwa,5.9656,-1.78,21.02,96,92,1.61,GH,1722997773
493,cabedelo,-6.9811,-34.8339,23.37,83,31,5.03,BR,1722997772
494,prince george,53.9166,-122.753,24.23,46,0,2.06,CA,1722997775
495,surazh,53.0175,32.3918,15.64,91,100,0.92,RU,1722997776
496,lorengau,-2.0226,147.2712,28.58,77,32,4.51,PG,1722997777
497,stjordalshalsen,63.4681,10.9262,21.0,56,0,5.66,NO,1722997778
498,cabo san lucas,22.8909,-109.9124,27.61,90,100,0.0,MX,1722997779
499,sierra grande,-41.606,-65.3557,5.86,84,100,9.93,AR,1722997780
500,ostersund,63.1792,14.6357,16.25,96,100,5.66,SE,1722997497
501,roxas,11.5853,122.7511,29.52,70,55,1.95,PH,1722997782
502,villa gesell,-37.2639,-56.973,12.81,99,99,3.76,AR,1722997783
503,luderitz,-26.6481,15.1594,11.85,80,99,1.59,NA,1722997785
504,kendari,-3.945,122.4989,28.75,69,13,1.4,ID,1722997786
505,i-n-salah,27.1935,2.4607,32.69,14,0,4.94,DZ,1722997787
506,kirtland,36.7342,-108.3598,24.23,63,94,8.07,US,1722997788
507,orcopampa,-15.2661,-72.3417,4.04,64,0,0.93,PE,1722997789
508,santa maria del oro,25.9333,-105.3667,25.49,39,99,0.72,MX,1722997790
509,puntarenas,9.9763,-84.8384,24.97,92,100,1.22,CR,1722997717
510,simanggang,1.2472,111.4528,25.99,94,20,1.54,MY,1722997722
511,montrose,38.4166,-108.2673,18.38,51,73,1.22,US,1722997794
512,pisco,-13.7,-76.2167,16.03,82,2,1.54,PE,1722997795
513,lerwick,60.1545,-1.1494,13.0,90,12,6.43,GB,1722997796
514,sandnessjoen,66.0217,12.6316,14.29,75,8,7.94,NO,1722997798
515,myeik,12.4333,98.6,27.2,81,100,0.75,MM,1722997799
516,essaouira,31.5125,-9.77,19.72,94,4,1.54,MA,1722997800
517,praya,14.9215,-23.5087,26.3,78,20,4.12,CV,1722997801
518,fort stockton,30.894,-102.8793,33.03,31,0,3.09,US,1722997802
519,mokhotlong,-29.2894,29.0675,3.24,49,0,0.7,LS,1722997803
520,tarandacuao,20.0,-100.5333,16.03,94,98,1.44,MX,1722997804
521,zaysan,47.4667,84.8667,26.55,30,100,5.01,KZ,1722997806
522,mil'kovo,55.6078,37.7956,16.86,85,24,1.59,RU,1722997807
523,juybar,36.6412,52.9124,26.09,78,69,2.53,IR,1722997808
524,daru,-9.0763,143.2092,25.44,82,95,6.13,PG,1722997809
525,castro marim,37.2207,-7.4435,26.32,60,0,5.34,PT,1722997811
526,taulaga,-11.0553,-171.0883,27.12,79,87,8.08,AS,1722997812
527,kyren,51.6828,102.1408,16.87,83,93,1.1,RU,1722997813
528,edd,13.9297,41.6925,29.55,74,100,1.79,ER,1722997814
529,newman,37.3138,-121.0208,36.99,11,0,2.84,US,1722997815
530,raja,8.4596,25.678,20.64,96,96,1.38,SS,1722997816
531,gaspe,48.8334,-64.4819,12.95,87,0,2.06,CA,1722997817
532,midelt,32.6852,-4.7451,23.75,37,17,1.66,MA,1722997819
533,mangai,-4.05,19.5333,25.46,34,97,0.46,CD,1722997820
534,muynoq,43.7683,59.0214,32.67,20,29,5.12,UZ,1722997821
535,vilhena,-12.7406,-60.1458,20.57,42,4,1.89,BR,1722997823
536,dawson creek,55.7666,-120.2362,21.8,46,0,2.57,CA,1722997824
537,namibe,-15.1961,12.1522,17.65,92,9,2.13,AO,1722997825
538,guadalupe y calvo,26.1,-106.9667,13.49,96,100,1.9,MX,1722997826
539,la sarre,48.8002,-79.1996,10.57,70,64,2.96,CA,1722997828
540,rio guayabal de yateras,20.3667,-75.0167,22.11,97,10,1.24,CU,1722997829
541,chita,52.0333,113.55,19.94,52,2,1.0,RU,1722997830
542,gurupi,-11.7292,-49.0686,23.66,40,0,1.76,BR,1722997832
543,olinda,-8.0089,-34.8553,22.85,88,20,2.57,BR,1722997642
544,cockburn town,21.4612,-71.1419,27.85,85,91,7.91,TC,1722997834
545,changji,44.0167,87.3167,25.44,47,0,1.0,CN,1722997773
546,igrim,63.1906,64.4162,10.53,60,7,3.3,RU,1722997836
547,igoumenitsa,39.5039,20.2656,25.02,51,0,2.25,GR,1722997837
548,lazaro cardenas,17.9583,-102.2,28.54,73,100,1.6,MX,1722997673
549,barcelos,41.5388,-8.6151,21.58,96,3,0.7,PT,1722997839
550,matadi,-5.8167,13.45,20.44,87,79,1.61,CD,1722997840
551,sena madureira,-9.0656,-68.6569,25.22,69,40,1.17,BR,1722997841
552,kraljevo,43.7258,20.6894,12.0,100,0,0.0,RS,1722997842
553,tanumah,27.1,44.1333,28.02,16,7,3.83,SA,1722997843
554,vetlanda,57.4289,15.0776,14.47,90,76,1.49,SE,1722997845
555,igarka,67.4667,86.5833,13.29,56,0,7.38,RU,1722997847
556,urengoy,65.9667,78.3667,11.38,63,0,6.89,RU,1722997848
557,cambria,35.5641,-121.0808,37.41,74,20,1.04,US,1722997849
558,bathsheba,13.2167,-59.5167,27.34,89,40,5.66,BB,1722997850
559,tashir,41.1207,44.2846,16.32,93,36,1.17,AM,1722997851
560,imbituba,-28.24,-48.6703,19.92,97,65,5.46,BR,1722997852
561,brookings,44.3114,-96.7984,18.0,79,0,3.09,US,1722997853
562,concordia,-31.393,-58.0209,15.44,95,100,0.89,AR,1722997854
563,el kala,36.8956,8.4433,19.23,62,0,1.4,DZ,1722997855
564,ati,13.2154,18.3353,24.91,83,100,3.57,TD,1722997857
565,talca,-35.4333,-71.6667,4.37,91,5,1.88,CL,1722997771
566,swan hill,-35.3378,143.5544,16.29,45,19,3.86,AU,1722997735
567,port douglas,-16.4833,145.4667,23.71,69,91,3.02,AU,1722997860
568,dadukou,26.5479,101.7054,27.09,71,71,0.69,CN,1722997861
569,la libertad,-2.2333,-80.9,22.81,83,40,5.14,EC,1722997862
570,parvatsar,26.8833,74.7667,25.01,88,100,6.85,IN,1722997863
571,scottburgh,-30.2867,30.7532,14.88,74,0,2.28,ZA,1722997864
572,paita,-5.0892,-81.1144,17.55,80,1,6.91,PE,1722997865
573,curaca,-8.9903,-39.9094,21.39,73,95,7.85,BR,1722997866
574,machico,32.7,-16.7667,24.35,77,20,5.14,PT,1722997867
575,enriquillo,17.9,-71.2333,26.04,85,27,4.01,DO,1722997868
576,as saffaniyah,27.9708,48.73,33.73,23,16,4.55,SA,1722997870
577,prado,-17.3411,-39.2208,23.73,66,46,3.33,BR,1722997871
578,pierre,44.3683,-100.351,22.14,69,0,4.63,US,1722997872
579,albardon,-31.4372,-68.5256,9.06,63,94,3.66,AR,1722997807
580,castrop-rauxel,51.55,7.3167,21.03,82,53,2.07,DE,1722997874
581,fort mcmurray,56.7268,-111.381,20.77,52,100,3.6,CA,1722997875
582,puerto santa,-8.9906,-78.6456,16.64,86,63,5.15,PE,1722997876
583,holualoa,19.6228,-155.9522,24.91,85,75,2.06,US,1722997877
